13:35:17.783 -> 
13:35:17.783 -> Time: 18:35:17.000
13:35:17.783 -> Date: 17/11/2021
13:35:17.783 -> Fix: 1 quality: 1
13:35:17.783 -> Location: 39.68148422, -75.75247955
13:35:17.783 -> Speed (knots): 0.30
13:35:17.783 -> Angle: 40.50
13:35:17.783 -> Altitude: 27.40
13:35:17.783 -> Satellites: 5
13:35:18.204 -> $PGTOP,11,2*6E
13:35:18.288 -> $GPGGA,183518.000,3940.8897,N,07545.1487,W,1,05,1.48,29.4,M,-33.8,M,,*63
13:35:18.380 -> $GPRMC,183518.000,A,3940.8897,N,07545.1487,W,0.23,50.20,171121,,,A*40
13:35:19.215 -> $PGTOP,11,2*6E
13:35:19.298 -> $GPGGA,183519.000,3940.8903,N,07545.1486,W,1,05,1.49,31.8,M,-33.8,M,,*6B
13:35:19.345 -> $GPRMC,183519.000,A,3940.8903,N,07545.1486,W,0.24,54.26,171121,,,A*49
13:35:19.785 -> 
13:35:19.785 -> Time: 18:35:19.000
13:35:19.785 -> Date: 17/11/2021
13:35:19.785 -> Fix: 1 quality: 1
13:35:19.785 -> Location: 39.68150330, -75.75247955
13:35:19.785 -> Speed (knots): 0.24
13:35:19.785 -> Angle: 54.26
13:35:19.785 -> Altitude: 31.80
13:35:19.785 -> Satellites: 5
13:35:20.212 -> $PGTOP,11,2*6E
13:35:20.295 -> $GPGGA,183520.000,3940.8909,N,07545.1485,W,1,05,1.48,33.7,M,-33.8,M,,*64
13:35:20.336 -> $GPRMC,183520.000,A,3940.8909,N,07545.1485,W,0.32,66.57,171121,,,A*4A
13:35:21.220 -> $PGTOP,11,2*6E
13:35:21.309 -> $GPGGA,183521.000,3940.8914,N,07545.1482,W,1,05,1.48,36.1,M,-33.8,M,,*6D
13:35:21.382 -> $GPRMC,183521.000,A,3940.8914,N,07545.1482,W,0.48,76.18,171121,,,A*47
13:35:21.784 -> 
13:35:21.784 -> Time: 18:35:21.000
13:35:21.784 -> Date: 17/11/2021
13:35:21.784 -> Fix: 1 quality: 1
13:35:21.784 -> Location: 39.68152237, -75.75247192
13:35:21.784 -> Speed (knots): 0.48
13:35:21.784 -> Angle: 76.18
13:35:21.784 -> Altitude: 36.10
13:35:21.784 -> Satellites: 5
13:35:22.213 -> $PGTOP,11,2*6E
13:35:22.307 -> $GPGGA,183522.000,3940.8918,N,07545.1482,W,1,05,1.48,37.6,M,-33.8,M,,*64
13:35:22.392 -> $GPRMC,183522.000,A,3940.8918,N,07545.1482,W,0.35,73.43,171121,,,A*49
13:35:23.192 -> $PGTOP,11,2*6E
13:35:23.281 -> $GPGGA,183523.000,3940.8921,N,07545.1482,W,1,05,1.48,39.1,M,-33.8,M,,*66
13:35:23.368 -> $GPRMC,183523.000,A,3940.8921,N,07545.1482,W,0.24,60.27,171121,,,A*42
13:35:23.789 -> 
13:35:23.789 -> Time: 18:35:23.000
13:35:23.789 -> Date: 17/11/2021
13:35:23.789 -> Fix: 1 quality: 1
13:35:23.789 -> Location: 39.68153381, -75.75247192
13:35:23.789 -> Speed (knots): 0.24
13:35:23.789 -> Angle: 60.27
13:35:23.789 -> Altitude: 39.10
13:35:23.789 -> Satellites: 5
13:35:24.236 -> $PGTOP,11,2*6E
13:35:24.314 -> $GPGGA,183524.000,3940.8924,N,07545.1481,W,1,04,1.92,40.1,M,-33.8,M,,*6F
13:35:24.359 -> $GPRMC,183524.000,A,3940.8924,N,07545.1481,W,0.27,22.26,171121,,,A*47
13:35:25.223 -> $PGTOP,11,2*6E
13:35:25.298 -> $GPGGA,183525.000,3940.8925,N,07545.1479,W,1,05,1.29,40.8,M,-33.8,M,,*60
13:35:25.385 -> $GPRMC,183525.000,A,3940.8925,N,07545.1479,W,0.03,194.20,171121,,,A*7C
13:35:25.792 -> 
13:35:25.792 -> Time: 18:35:25.000
13:35:25.792 -> Date: 17/11/2021
13:35:25.792 -> Fix: 1 quality: 1
13:35:25.792 -> Location: 39.68153763, -75.75246429
13:35:25.792 -> Speed (knots): 0.03
13:35:25.792 -> Angle: 194.20
13:35:25.792 -> Altitude: 40.80
13:35:25.792 -> Satellites: 5
13:35:26.214 -> $PGTOP,11,2*6E
13:35:26.292 -> $GPGGA,183526.000,3940.8928,N,07545.1478,W,1,05,1.29,41.8,M,-33.8,M,,*6E
13:35:26.381 -> $GPRMC,183526.000,A,3940.8928,N,07545.1478,W,0.08,359.26,171121,,,A*7D
13:35:27.215 -> $PGTOP,11,2*6E
13:35:27.308 -> $GPGGA,183527.000,3940.8930,N,07545.1477,W,1,06,1.35,42.7,M,-33.8,M,,*6B
13:35:27.355 -> $GPRMC,183527.000,A,3940.8930,N,07545.1477,W,0.17,352.79,171121,,,A*75
13:35:27.767 -> 
13:35:27.767 -> Time: 18:35:27.000
13:35:27.767 -> Date: 17/11/2021
13:35:27.767 -> Fix: 1 quality: 1
13:35:27.767 -> Location: 39.68154907, -75.75246429
13:35:27.767 -> Speed (knots): 0.17
13:35:27.767 -> Angle: 352.79
13:35:27.767 -> Altitude: 42.70
13:35:27.809 -> Satellites: 6
13:35:28.209 -> $PGTOP,11,2*6E
13:35:28.301 -> $GPGGA,183528.000,3940.8932,N,07545.1476,W,1,06,1.35,43.3,M,-33.8,M,,*62
13:35:28.342 -> $GPRMC,183528.000,A,3940.8932,N,07545.1476,W,0.19,16.38,171121,,,A*41
13:35:29.193 -> $PGTOP,11,2*6E
13:35:29.297 -> $GPGGA,183529.000,3940.8935,N,07545.1474,W,1,06,1.22,43.4,M,-33.8,M,,*67
13:35:29.343 -> $GPRMC,183529.000,A,3940.8935,N,07545.1474,W,0.09,332.24,171121,,,A*7C
13:35:29.797 -> 
13:35:29.797 -> Time: 18:35:29.000
13:35:29.797 -> Date: 17/11/2021
13:35:29.797 -> Fix: 1 quality: 1
13:35:29.797 -> Location: 39.68155670, -75.75246429
13:35:29.797 -> Speed (knots): 0.09
13:35:29.797 -> Angle: 332.24
13:35:29.797 -> Altitude: 43.40
13:35:29.797 -> Satellites: 6
13:35:30.222 -> $PGTOP,11,2*6E
13:35:30.313 -> $GPGGA,183530.000,3940.8937,N,07545.1470,W,1,06,1.22,43.2,M,-33.8,M,,*6F
13:35:30.362 -> $GPRMC,183530.000,A,3940.8937,N,07545.1470,W,0.10,138.57,171121,,,A*76
13:35:31.210 -> $PGTOP,11,2*6E
13:35:31.294 -> $GPGGA,183531.000,3940.8940,N,07545.1466,W,1,06,1.22,42.5,M,-33.8,M,,*6F
13:35:31.377 -> $GPRMC,183531.000,A,3940.8940,N,07545.1466,W,0.10,198.57,171121,,,A*7A
13:35:31.798 -> 
13:35:31.798 -> Time: 18:35:31.000
13:35:31.798 -> Date: 17/11/2021
13:35:31.798 -> Fix: 1 quality: 1
13:35:31.798 -> Location: 39.68156433, -75.75244904
13:35:31.798 -> Speed (knots): 0.10
13:35:31.798 -> Angle: 198.57
13:35:31.798 -> Altitude: 42.50
13:35:31.798 -> Satellites: 6
13:35:32.220 -> $PGTOP,11,2*6E
13:35:32.303 -> $GPGGA,183532.000,3940.8944,N,07545.1463,W,1,06,1.22,42.1,M,-33.8,M,,*69
13:35:32.387 -> $GPRMC,183532.000,A,3940.8944,N,07545.1463,W,0.17,358.08,171121,,,A*7B
13:35:33.230 -> $PGTOP,11,2*6E
13:35:33.312 -> $GPGGA,183533.000,3940.8948,N,07545.1461,W,1,06,1.35,41.6,M,-33.8,M,,*64
13:35:33.400 -> $GPRMC,183533.000,A,3940.8948,N,07545.1461,W,0.19,341.93,171121,,,A*70
13:35:33.787 -> 
13:35:33.787 -> Time: 18:35:33.000
13:35:33.787 -> Date: 17/11/2021
13:35:33.787 -> Fix: 1 quality: 1
13:35:33.787 -> Location: 39.68157578, -75.75243378
13:35:33.787 -> Speed (knots): 0.19
13:35:33.787 -> Angle: 341.93
13:35:33.787 -> Altitude: 41.60
13:35:33.787 -> Satellites: 6
13:35:34.237 -> $PGTOP,11,2*6E
13:35:34.281 -> $GPGGA,183534.000,3940.8951,N,07545.1459,W,1,06,1.22,41.3,M,-33.8,M,,*63
13:35:34.370 -> $GPRMC,183534.000,A,3940.8951,N,07545.1459,W,0.19,353.79,171121,,,A*73
13:35:35.231 -> $PGTOP,11,2*6E
13:35:35.320 -> $GPGGA,183535.000,3940.8952,N,07545.1459,W,1,06,1.35,41.3,M,-33.8,M,,*67
13:35:35.364 -> $GPRMC,183535.000,A,3940.8952,N,07545.1459,W,0.35,308.27,171121,,,A*7A
13:35:35.782 -> 
13:35:35.782 -> Time: 18:35:35.000
13:35:35.782 -> Date: 17/11/2021
13:35:35.782 -> Fix: 1 quality: 1
13:35:35.782 -> Location: 39.68158722, -75.75243378
13:35:35.782 -> Speed (knots): 0.35
13:35:35.782 -> Angle: 308.27
13:35:35.782 -> Altitude: 41.30
13:35:35.782 -> Satellites: 6
13:35:36.205 -> $PGTOP,11,2*6E
13:35:36.294 -> $GPGGA,183536.000,3940.8952,N,07545.1460,W,1,06,1.22,41.3,M,-33.8,M,,*68
13:35:36.382 -> $GPRMC,183536.000,A,3940.8952,N,07545.1460,W,0.29,309.73,171121,,,A*7E
13:35:37.234 -> $PGTOP,11,2*6E
13:35:37.323 -> $GPGGA,183537.000,3940.8953,N,07545.1461,W,1,06,1.22,41.3,M,-33.8,M,,*69
13:35:37.396 -> $GPRMC,183537.000,A,3940.8953,N,07545.1461,W,0.35,302.80,171121,,,A*75
13:35:37.772 -> 
13:35:37.772 -> Time: 18:35:37.000
13:35:37.772 -> Date: 17/11/2021
13:35:37.772 -> Fix: 1 quality: 1
13:35:37.772 -> Location: 39.68158722, -75.75243378
13:35:37.772 -> Speed (knots): 0.35
13:35:37.772 -> Angle: 302.80
13:35:37.772 -> Altitude: 41.30
13:35:37.772 -> Satellites: 6
13:35:38.227 -> $PGTOP,11,2*6E
13:35:38.307 -> $GPGGA,183538.000,3940.8954,N,07545.1462,W,1,06,1.22,41.2,M,-33.8,M,,*63
13:35:38.393 -> $GPRMC,183538.000,A,3940.8954,N,07545.1462,W,0.15,336.16,171121,,,A*74
13:35:39.212 -> $PGTOP,11,2*6E
13:35:39.301 -> $GPGGA,183539.000,3940.8954,N,07545.1462,W,1,06,1.22,41.2,M,-33.8,M,,*62
13:35:39.395 -> $GPRMC,183539.000,A,3940.8954,N,07545.1462,W,0.14,191.55,171121,,,A*7C
13:35:39.795 -> 
13:35:39.795 -> Time: 18:35:39.000
13:35:39.795 -> Date: 17/11/2021
13:35:39.795 -> Fix: 1 quality: 1
13:35:39.795 -> Location: 39.68159103, -75.75244141
13:35:39.795 -> Speed (knots): 0.14
13:35:39.795 -> Angle: 191.55
13:35:39.795 -> Altitude: 41.20
13:35:39.795 -> Satellites: 6
13:35:40.238 -> $PGTOP,11,2*6E
13:35:40.287 -> $GPGGA,183540.000,3940.8954,N,07545.1462,W,1,06,1.22,41.2,M,-33.8,M,,*6C
13:35:40.365 -> $GPRMC,183540.000,A,3940.8954,N,07545.1462,W,0.16,175.98,171121,,,A*7B
13:35:41.214 -> $PGTOP,11,2*6E
13:35:41.302 -> $GPGGA,183541.000,3940.8953,N,07545.1462,W,1,06,1.22,41.2,M,-33.8,M,,*6A
13:35:41.383 -> $GPRMC,183541.000,A,3940.8953,N,07545.1462,W,0.15,225.62,171121,,,A*7D
13:35:41.780 -> 
13:35:41.780 -> Time: 18:35:41.000
13:35:41.780 -> Date: 17/11/2021
13:35:41.780 -> Fix: 1 quality: 1
13:35:41.780 -> Location: 39.68158722, -75.75244141
13:35:41.780 -> Speed (knots): 0.15
13:35:41.780 -> Angle: 225.62
13:35:41.780 -> Altitude: 41.20
13:35:41.780 -> Satellites: 6
13:35:42.222 -> $PGTOP,11,2*6E
13:35:42.315 -> $GPGGA,183542.000,3940.8953,N,07545.1462,W,1,06,1.22,41.2,M,-33.8,M,,*69
13:35:42.363 -> $GPRMC,183542.000,A,3940.8953,N,07545.1462,W,0.20,215.13,171121,,,A*7D
13:35:43.243 -> $PGTOP,11,2*6E
13:35:43.336 -> $GPGGA,183543.000,3940.8952,N,07545.1463,W,1,06,1.22,41.2,M,-33.8,M,,*68
13:35:43.372 -> $GPRMC,183543.000,A,3940.8952,N,07545.1463,W,0.15,192.85,171121,,,A*79
13:35:43.768 -> 
13:35:43.768 -> Time: 18:35:43.000
13:35:43.768 -> Date: 17/11/2021
13:35:43.768 -> Fix: 1 quality: 1
13:35:43.768 -> Location: 39.68158722, -75.75244141
13:35:43.804 -> Speed (knots): 0.15
13:35:43.804 -> Angle: 192.85
13:35:43.804 -> Altitude: 41.20
13:35:43.804 -> Satellites: 6
13:35:44.208 -> $PGTOP,11,2*6E
13:35:44.303 -> $GPGGA,183544.000,3940.8952,N,07545.1463,W,1,06,1.22,41.2,M,-33.8,M,,*6F
13:35:44.397 -> $GPRMC,183544.000,A,3940.8952,N,07545.1463,W,0.15,125.89,171121,,,A*7E
13:35:45.198 -> $PGTOP,11,2*6E
13:35:45.283 -> $GPGGA,183545.000,3940.8952,N,07545.1462,W,1,06,1.22,41.1,M,-33.8,M,,*6C
13:35:45.365 -> $GPRMC,183545.000,A,3940.8952,N,07545.1462,W,0.25,111.84,171121,,,A*77
13:35:45.794 -> 
13:35:45.794 -> Time: 18:35:45.000
13:35:45.794 -> Date: 17/11/2021
13:35:45.794 -> Fix: 1 quality: 1
13:35:45.794 -> Location: 39.68158722, -75.75244141
13:35:45.794 -> Speed (knots): 0.25
13:35:45.794 -> Angle: 111.84
13:35:45.794 -> Altitude: 41.10
13:35:45.794 -> Satellites: 6
13:35:46.207 -> $PGTOP,11,2*6E
13:35:46.293 -> $GPGGA,183546.000,3940.8952,N,07545.1461,W,1,06,1.22,41.1,M,-33.8,M,,*6C
13:35:46.388 -> $GPRMC,183546.000,A,3940.8952,N,07545.1461,W,0.40,88.62,171121,,,A*4D
13:35:47.236 -> $PGTOP,11,2*6E
13:35:47.307 -> $GPGGA,183547.000,3940.8952,N,07545.1460,W,1,06,1.22,41.1,M,-33.8,M,,*6C
13:35:47.348 -> $GPRMC,183547.000,A,3940.8952,N,07545.1460,W,0.25,46.51,171121,,,A*4C
13:35:47.765 -> 
13:35:47.765 -> Time: 18:35:47.000
13:35:47.765 -> Date: 17/11/2021
13:35:47.765 -> Fix: 1 quality: 1
13:35:47.765 -> Location: 39.68158722, -75.75243378
13:35:47.806 -> Speed (knots): 0.25
13:35:47.806 -> Angle: 46.51
13:35:47.806 -> Altitude: 41.10
13:35:47.806 -> Satellites: 6
13:35:48.235 -> $PGTOP,11,2*6E
13:35:48.283 -> $GPGGA,183548.000,3940.8952,N,07545.1459,W,1,06,1.22,41.1,M,-33.8,M,,*69
13:35:48.366 -> $GPRMC,183548.000,A,3940.8952,N,07545.1459,W,0.17,41.91,171121,,,A*43
13:35:49.256 -> $PGTOP,11,2*6E
13:35:49.335 -> $GPGGA,183549.000,3940.8953,N,07545.1459,W,1,08,0.92,41.1,M,-33.8,M,,*6D
13:35:49.377 -> $GPRMC,183549.000,A,3940.8953,N,07545.1459,W,0.23,45.13,171121,,,A*4A
13:35:49.764 -> 
13:35:49.764 -> Time: 18:35:49.000
13:35:49.764 -> Date: 17/11/2021
13:35:49.810 -> Fix: 1 quality: 1
13:35:49.810 -> Location: 39.68158722, -75.75243378
13:35:49.810 -> Speed (knots): 0.23
13:35:49.810 -> Angle: 45.13
13:35:49.810 -> Altitude: 41.10
13:35:49.810 -> Satellites: 8
13:35:50.220 -> $PGTOP,11,2*6E
13:35:50.311 -> $GPGGA,183550.000,3940.8953,N,07545.1458,W,1,08,0.92,41.1,M,-33.8,M,,*64
13:35:50.392 -> $GPRMC,183550.000,A,3940.8953,N,07545.1458,W,0.18,32.89,171121,,,A*48
13:35:51.240 -> $PGTOP,11,2*6E
13:35:51.289 -> $GPGGA,183551.000,3940.8953,N,07545.1458,W,1,08,0.92,41.1,M,-33.8,M,,*65
13:35:51.380 -> $GPRMC,183551.000,A,3940.8953,N,07545.1458,W,0.12,146.64,171121,,,A*72
13:35:51.777 -> 
13:35:51.777 -> Time: 18:35:51.000
13:35:51.777 -> Date: 17/11/2021
13:35:51.777 -> Fix: 1 quality: 1
13:35:51.777 -> Location: 39.68158722, -75.75243378
13:35:51.777 -> Speed (knots): 0.12
13:35:51.777 -> Angle: 146.64
13:35:51.777 -> Altitude: 41.10
13:35:51.777 -> Satellites: 8
13:35:52.216 -> $PGTOP,11,2*6E
13:35:52.299 -> $GPGGA,183552.000,3940.8953,N,07545.1458,W,1,08,0.92,41.1,M,-33.8,M,,*66
13:35:52.380 -> $GPRMC,183552.000,A,3940.8953,N,07545.1458,W,0.14,169.87,171121,,,A*77
13:35:53.261 -> $PGTOP,11,2*6E
13:35:53.300 -> $GPGGA,183553.000,3940.8953,N,07545.1458,W,1,08,0.92,41.0,M,-33.8,M,,*66
13:35:53.385 -> $GPRMC,183553.000,A,3940.8953,N,07545.1458,W,0.17,234.30,171121,,,A*72
13:35:53.798 -> 
13:35:53.798 -> Time: 18:35:53.000
13:35:53.798 -> Date: 17/11/2021
13:35:53.798 -> Fix: 1 quality: 1
13:35:53.798 -> Location: 39.68158722, -75.75243378
13:35:53.798 -> Speed (knots): 0.17
13:35:53.798 -> Angle: 234.30
13:35:53.798 -> Altitude: 41.00
13:35:53.798 -> Satellites: 8
13:35:54.235 -> $PGTOP,11,2*6E
13:35:54.328 -> $GPGGA,183554.000,3940.8953,N,07545.1458,W,1,08,0.92,41.0,M,-33.8,M,,*61
13:35:54.373 -> $GPRMC,183554.000,A,3940.8953,N,07545.1458,W,0.08,246.58,171121,,,A*70
13:35:55.256 -> $PGTOP,11,2*6E
13:35:55.303 -> $GPGGA,183555.000,3940.8952,N,07545.1458,W,1,08,0.92,41.0,M,-33.8,M,,*61
13:35:55.392 -> $GPRMC,183555.000,A,3940.8952,N,07545.1458,W,0.25,296.97,171121,,,A*71
13:35:55.800 -> 
13:35:55.800 -> Time: 18:35:55.000
13:35:55.800 -> Date: 17/11/2021
13:35:55.800 -> Fix: 1 quality: 1
13:35:55.800 -> Location: 39.68158722, -75.75243378
13:35:55.800 -> Speed (knots): 0.25
13:35:55.800 -> Angle: 296.97
13:35:55.800 -> Altitude: 41.00
13:35:55.800 -> Satellites: 8
13:35:56.239 -> $PGTOP,11,2*6E
13:35:56.281 -> $GPGGA,183556.000,3940.8953,N,07545.1459,W,1,08,0.92,41.0,M,-33.8,M,,*62
13:35:56.375 -> $GPRMC,183556.000,A,3940.8953,N,07545.1459,W,0.27,330.11,171121,,,A*73
13:35:57.204 -> $PGTOP,11,2*6E
13:35:57.295 -> $GPGGA,183557.000,3940.8953,N,07545.1460,W,1,08,0.92,41.0,M,-33.8,M,,*69
13:35:57.380 -> $GPRMC,183557.000,A,3940.8953,N,07545.1460,W,0.32,358.98,171121,,,A*73
13:35:57.785 -> 
13:35:57.785 -> Time: 18:35:57.000
13:35:57.785 -> Date: 17/11/2021
13:35:57.785 -> Fix: 1 quality: 1
13:35:57.785 -> Location: 39.68158722, -75.75243378
13:35:57.785 -> Speed (knots): 0.32
13:35:57.785 -> Angle: 358.98
13:35:57.785 -> Altitude: 41.00
13:35:57.785 -> Satellites: 8
13:35:58.211 -> $PGTOP,11,2*6E
13:35:58.302 -> $GPGGA,183558.000,3940.8954,N,07545.1460,W,1,08,0.94,41.0,M,-33.8,M,,*67
13:35:58.383 -> $GPRMC,183558.000,A,3940.8954,N,07545.1460,W,0.32,344.48,171121,,,A*7B
13:35:59.231 -> $PGTOP,11,2*6E
13:35:59.275 -> $GPGGA,183559.000,3940.8955,N,07545.1460,W,1,08,0.92,41.0,M,-33.8,M,,*61
13:35:59.354 -> $GPRMC,183559.000,A,3940.8955,N,07545.1460,W,0.91,319.26,171121,,,A*72
13:35:59.779 -> 
13:35:59.779 -> Time: 18:35:59.000
13:35:59.779 -> Date: 17/11/2021
13:35:59.779 -> Fix: 1 quality: 1
13:35:59.779 -> Location: 39.68159103, -75.75243378
13:35:59.779 -> Speed (knots): 0.91
13:35:59.779 -> Angle: 319.26
13:35:59.779 -> Altitude: 41.00
13:35:59.779 -> Satellites: 8
13:36:00.209 -> $PGTOP,11,2*6E
13:36:00.292 -> $GPGGA,183600.000,3940.8957,N,07545.1462,W,1,08,0.92,41.0,M,-33.8,M,,*6E
13:36:00.384 -> $GPRMC,183600.000,A,3940.8957,N,07545.1462,W,0.32,16.00,171121,,,A*4C
13:36:01.240 -> $PGTOP,11,2*6E
13:36:01.329 -> $GPGGA,183601.000,3940.8958,N,07545.1462,W,1,08,0.92,41.0,M,-33.8,M,,*60
13:36:01.377 -> $GPRMC,183601.000,A,3940.8958,N,07545.1462,W,0.95,118.43,171121,,,A*77
13:36:01.793 -> 
13:36:01.793 -> Time: 18:36:01.000
13:36:01.793 -> Date: 17/11/2021
13:36:01.793 -> Fix: 1 quality: 1
13:36:01.793 -> Location: 39.68159866, -75.75244141
13:36:01.793 -> Speed (knots): 0.95
13:36:01.793 -> Angle: 118.43
13:36:01.793 -> Altitude: 41.00
13:36:01.793 -> Satellites: 8
13:36:02.203 -> $PGTOP,11,2*6E
13:36:02.289 -> $GPGGA,183602.000,3940.8957,N,07545.1459,W,1,08,0.92,41.0,M,-33.8,M,,*64
13:36:02.366 -> $GPRMC,183602.000,A,3940.8957,N,07545.1459,W,0.73,119.10,171121,,,A*7C
13:36:03.219 -> $PGTOP,11,2*6E
13:36:03.313 -> $GPGGA,183603.000,3940.8956,N,07545.1456,W,1,08,0.92,41.0,M,-33.8,M,,*6B
13:36:03.405 -> $GPRMC,183603.000,A,3940.8956,N,07545.1456,W,0.41,156.24,171121,,,A*7E
13:36:03.798 -> 
13:36:03.798 -> Time: 18:36:03.000
13:36:03.798 -> Date: 17/11/2021
13:36:03.798 -> Fix: 1 quality: 1
13:36:03.798 -> Location: 39.68159485, -75.75242615
13:36:03.798 -> Speed (knots): 0.41
13:36:03.798 -> Angle: 156.24
13:36:03.798 -> Altitude: 41.00
13:36:03.798 -> Satellites: 8
13:36:04.238 -> $PGTOP,11,2*6E
13:36:04.279 -> $GPGGA,183604.000,3940.8955,N,07545.1456,W,1,08,0.92,41.0,M,-33.8,M,,*6F
13:36:04.366 -> $GPRMC,183604.000,A,3940.8955,N,07545.1456,W,0.10,33.00,171121,,,A*4A
13:36:05.243 -> $PGTOP,11,2*6E
13:36:05.330 -> $GPGGA,183605.000,3940.8955,N,07545.1456,W,1,08,0.92,40.9,M,-33.8,M,,*66
13:36:05.376 -> $GPRMC,183605.000,A,3940.8955,N,07545.1456,W,0.20,47.90,171121,,,A*42
13:36:05.775 -> 
13:36:05.775 -> Time: 18:36:05.000
13:36:05.775 -> Date: 17/11/2021
13:36:05.775 -> Fix: 1 quality: 1
13:36:05.775 -> Location: 39.68159103, -75.75242615
13:36:05.775 -> Speed (knots): 0.20
13:36:05.775 -> Angle: 47.90
13:36:05.775 -> Altitude: 40.90
13:36:05.775 -> Satellites: 8
13:36:06.205 -> $PGTOP,11,2*6E
13:36:06.284 -> $GPGGA,183606.000,3940.8956,N,07545.1455,W,1,08,0.92,40.9,M,-33.8,M,,*65
13:36:06.369 -> $GPRMC,183606.000,A,3940.8956,N,07545.1455,W,0.13,47.29,171121,,,A*43
13:36:07.244 -> $PGTOP,11,2*6E
13:36:07.332 -> $GPGGA,183607.000,3940.8956,N,07545.1455,W,1,08,0.92,40.9,M,-33.8,M,,*64
13:36:07.421 -> $GPRMC,183607.000,A,3940.8956,N,07545.1455,W,0.04,48.97,171121,,,A*4E
13:36:07.774 -> 
13:36:07.774 -> Time: 18:36:07.000
13:36:07.774 -> Date: 17/11/2021
13:36:07.774 -> Fix: 1 quality: 1
13:36:07.774 -> Location: 39.68159485, -75.75242615
13:36:07.774 -> Speed (knots): 0.04
13:36:07.774 -> Angle: 48.97
13:36:07.818 -> Altitude: 40.90
13:36:07.818 -> Satellites: 8
13:36:08.220 -> $PGTOP,11,2*6E
13:36:08.305 -> $GPGGA,183608.000,3940.8956,N,07545.1455,W,1,08,0.92,40.9,M,-33.8,M,,*6B
13:36:08.350 -> $GPRMC,183608.000,A,3940.8956,N,07545.1455,W,0.22,165.99,171121,,,A*75
13:36:09.220 -> $PGTOP,11,2*6E
13:36:09.316 -> $GPGGA,183609.000,3940.8955,N,07545.1454,W,1,08,0.92,40.9,M,-33.8,M,,*68
13:36:09.393 -> $GPRMC,183609.000,A,3940.8955,N,07545.1454,W,0.18,142.24,171121,,,A*7C
13:36:09.766 -> 
13:36:09.766 -> Time: 18:36:09.000
13:36:09.813 -> Date: 17/11/2021
13:36:09.813 -> Fix: 1 quality: 1
13:36:09.813 -> Location: 39.68159103, -75.75242615
13:36:09.813 -> Speed (knots): 0.18
13:36:09.813 -> Angle: 142.24
13:36:09.813 -> Altitude: 40.90
13:36:09.813 -> Satellites: 8
13:36:10.234 -> $PGTOP,11,2*6E
13:36:10.310 -> $GPGGA,183610.000,3940.8955,N,07545.1454,W,1,08,0.92,40.9,M,-33.8,M,,*60
13:36:10.392 -> $GPRMC,183610.000,A,3940.8955,N,07545.1454,W,0.12,119.83,171121,,,A*7D
13:36:11.210 -> $PGTOP,11,2*6E
13:36:11.284 -> $GPGGA,183611.000,3940.8955,N,07545.1454,W,1,08,0.92,40.9,M,-33.8,M,,*61
13:36:11.370 -> $GPRMC,183611.000,A,3940.8955,N,07545.1454,W,0.05,21.59,171121,,,A*47
13:36:11.769 -> 
13:36:11.769 -> Time: 18:36:11.000
13:36:11.769 -> Date: 17/11/2021
13:36:11.769 -> Fix: 1 quality: 1
13:36:11.769 -> Location: 39.68159103, -75.75242615
13:36:11.814 -> Speed (knots): 0.05
13:36:11.814 -> Angle: 21.59
13:36:11.814 -> Altitude: 40.90
13:36:11.814 -> Satellites: 8
13:36:12.250 -> $PGTOP,11,2*6E
13:36:12.288 -> $GPGGA,183612.000,3940.8955,N,07545.1454,W,1,08,0.92,40.9,M,-33.8,M,,*62
13:36:12.372 -> $GPRMC,183612.000,A,3940.8955,N,07545.1454,W,0.09,154.64,171121,,,A*75
13:36:13.238 -> $PGTOP,11,2*6E
13:36:13.319 -> $GPGGA,183613.000,3940.8955,N,07545.1453,W,1,08,0.92,40.9,M,-33.8,M,,*64
13:36:13.365 -> $GPRMC,183613.000,A,3940.8955,N,07545.1453,W,0.05,127.04,171121,,,A*7D
13:36:13.801 -> 
13:36:13.801 -> Time: 18:36:13.000
13:36:13.801 -> Date: 17/11/2021
13:36:13.801 -> Fix: 1 quality: 1
13:36:13.801 -> Location: 39.68159103, -75.75242615
13:36:13.801 -> Speed (knots): 0.05
13:36:13.801 -> Angle: 127.04
13:36:13.801 -> Altitude: 40.90
13:36:13.801 -> Satellites: 8
13:36:14.225 -> $PGTOP,11,2*6E
13:36:14.321 -> $GPGGA,183614.000,3940.8955,N,07545.1453,W,1,08,0.92,40.9,M,-33.8,M,,*63
13:36:14.409 -> $GPRMC,183614.000,A,3940.8955,N,07545.1453,W,0.07,65.79,171121,,,A*45
13:36:15.219 -> $PGTOP,11,2*6E
13:36:15.312 -> $GPGGA,183615.000,3940.8955,N,07545.1453,W,1,08,0.92,40.9,M,-33.8,M,,*62
13:36:15.406 -> $GPRMC,183615.000,A,3940.8955,N,07545.1453,W,0.14,216.51,171121,,,A*7A
13:36:15.784 -> 
13:36:15.784 -> Time: 18:36:15.000
13:36:15.784 -> Date: 17/11/2021
13:36:15.784 -> Fix: 1 quality: 1
13:36:15.784 -> Location: 39.68159103, -75.75242615
13:36:15.784 -> Speed (knots): 0.14
13:36:15.784 -> Angle: 216.51
13:36:15.784 -> Altitude: 40.90
13:36:15.784 -> Satellites: 8
13:36:16.730 -> $PGTOP,11,2*6E
13:36:16.730 -> $GPGGA,183616.000,3940.8954,N,07545.1453,W,1,08,0.92,40.9,M,-33.8,M,,*60
13:36:16.730 -> $GPRMC,183616.000,A,3940.8954,N,07545.1453,W,0.10,250.04,171121,,,A*7E
13:36:17.238 -> $PGTOP,11,2*6E
13:36:17.283 -> $GPGGA,183617.000,3940.8954,N,07545.1454,W,1,08,0.92,40.9,M,-33.8,M,,*66
13:36:17.377 -> $GPRMC,183617.000,A,3940.8954,N,07545.1454,W,0.06,265.30,171121,,,A*7E
13:36:17.771 -> 
13:36:17.771 -> Time: 18:36:17.000
13:36:17.771 -> Date: 17/11/2021
13:36:17.771 -> Fix: 1 quality: 1
13:36:17.771 -> Location: 39.68159103, -75.75242615
13:36:17.817 -> Speed (knots): 0.06
13:36:17.817 -> Angle: 265.30
13:36:17.817 -> Altitude: 40.90
13:36:17.817 -> Satellites: 8
13:36:18.236 -> $PGTOP,11,2*6E
13:36:18.281 -> $GPGGA,183618.000,3940.8954,N,07545.1454,W,1,08,0.92,40.9,M,-33.8,M,,*69
13:36:18.371 -> $GPRMC,183618.000,A,3940.8954,N,07545.1454,W,0.06,168.44,171121,,,A*7C
13:36:19.218 -> $PGTOP,11,2*6E
13:36:19.302 -> $GPGGA,183619.000,3940.8954,N,07545.1454,W,1,09,0.87,40.9,M,-33.8,M,,*6D
13:36:19.380 -> $GPRMC,183619.000,A,3940.8954,N,07545.1454,W,0.03,49.50,171121,,,A*4F
13:36:19.775 -> 
13:36:19.775 -> Time: 18:36:19.000
13:36:19.775 -> Date: 17/11/2021
13:36:19.775 -> Fix: 1 quality: 1
13:36:19.775 -> Location: 39.68159103, -75.75242615
13:36:19.775 -> Speed (knots): 0.03
13:36:19.775 -> Angle: 49.50
13:36:19.775 -> Altitude: 40.90
13:36:19.820 -> Satellites: 9
13:36:20.224 -> $PGTOP,11,2*6E
13:36:20.296 -> $GPGGA,183620.000,3940.8954,N,07545.1454,W,1,09,0.87,40.9,M,-33.8,M,,*67
13:36:20.374 -> $GPRMC,183620.000,A,3940.8954,N,07545.1454,W,0.01,113.97,171121,,,A*72
13:36:21.216 -> $PGTOP,11,2*6E
13:36:21.299 -> $GPGGA,183621.000,3940.8954,N,07545.1453,W,1,09,0.87,40.9,M,-33.8,M,,*61
13:36:21.389 -> $GPRMC,183621.000,A,3940.8954,N,07545.1453,W,0.01,305.19,171121,,,A*77
13:36:21.790 -> 
13:36:21.790 -> Time: 18:36:21.000
13:36:21.790 -> Date: 17/11/2021
13:36:21.790 -> Fix: 1 quality: 1
13:36:21.790 -> Location: 39.68159103, -75.75242615
13:36:21.790 -> Speed (knots): 0.01
13:36:21.790 -> Angle: 305.19
13:36:21.790 -> Altitude: 40.90
13:36:21.790 -> Satellites: 9
13:36:22.226 -> $PGTOP,11,2*6E
13:36:22.314 -> $GPGGA,183622.000,3940.8954,N,07545.1453,W,1,09,0.87,40.9,M,-33.8,M,,*62
13:36:22.392 -> $GPRMC,183622.000,A,3940.8954,N,07545.1453,W,0.02,169.75,171121,,,A*75
13:36:23.237 -> $PGTOP,11,2*6E
13:36:23.284 -> $GPGGA,183623.000,3940.8954,N,07545.1453,W,1,09,0.87,40.9,M,-33.8,M,,*63
13:36:23.372 -> $GPRMC,183623.000,A,3940.8954,N,07545.1453,W,0.03,46.79,171121,,,A*45
13:36:23.781 -> 
13:36:23.781 -> Time: 18:36:23.000
13:36:23.781 -> Date: 17/11/2021
13:36:23.781 -> Fix: 1 quality: 1
13:36:23.781 -> Location: 39.68159103, -75.75242615
13:36:23.781 -> Speed (knots): 0.03
13:36:23.781 -> Angle: 46.79
13:36:23.781 -> Altitude: 40.90
13:36:23.781 -> Satellites: 9
13:36:24.249 -> $PGTOP,11,2*6E
13:36:24.298 -> $GPGGA,183624.000,3940.8954,N,07545.1453,W,1,09,0.87,40.9,M,-33.8,M,,*64
13:36:24.372 -> $GPRMC,183624.000,A,3940.8954,N,07545.1453,W,0.03,213.34,171121,,,A*79
13:36:25.234 -> $PGTOP,11,2*6E
13:36:25.331 -> $GPGGA,183625.000,3940.8954,N,07545.1453,W,1,09,0.87,40.9,M,-33.8,M,,*65
13:36:25.374 -> $GPRMC,183625.000,A,3940.8954,N,07545.1453,W,0.02,28.48,171121,,,A*48
13:36:25.789 -> 
13:36:25.789 -> Time: 18:36:25.000
13:36:25.789 -> Date: 17/11/2021
13:36:25.789 -> Fix: 1 quality: 1
13:36:25.789 -> Location: 39.68159103, -75.75242615
13:36:25.789 -> Speed (knots): 0.02
13:36:25.789 -> Angle: 28.48
13:36:25.789 -> Altitude: 40.90
13:36:25.789 -> Satellites: 9
13:36:26.211 -> $PGTOP,11,2*6E
13:36:26.300 -> $GPGGA,183626.000,3940.8954,N,07545.1453,W,1,09,0.87,40.9,M,-33.8,M,,*66
13:36:26.385 -> $GPRMC,183626.000,A,3940.8954,N,07545.1453,W,0.02,9.47,171121,,,A*77
13:36:27.241 -> $PGTOP,11,2*6E
13:36:27.287 -> $GPGGA,183627.000,3940.8954,N,07545.1453,W,1,09,0.90,40.9,M,-33.8,M,,*61
13:36:27.376 -> $GPRMC,183627.000,A,3940.8954,N,07545.1453,W,0.03,99.09,171121,,,A*44
13:36:27.778 -> 
13:36:27.778 -> Time: 18:36:27.000
13:36:27.778 -> Date: 17/11/2021
13:36:27.778 -> Fix: 1 quality: 1
13:36:27.778 -> Location: 39.68159103, -75.75242615
13:36:27.778 -> Speed (knots): 0.03
13:36:27.778 -> Angle: 99.09
13:36:27.778 -> Altitude: 40.90
13:36:27.778 -> Satellites: 9
13:36:28.219 -> $PGTOP,11,2*6E
13:36:28.306 -> $GPGGA,183628.000,3940.8954,N,07545.1453,W,1,09,0.87,40.9,M,-33.8,M,,*68
13:36:28.386 -> $GPRMC,183628.000,A,3940.8954,N,07545.1453,W,0.01,2.14,171121,,,A*77
13:36:29.218 -> $PGTOP,11,2*6E
13:36:29.315 -> $GPGGA,183629.000,3940.8954,N,07545.1453,W,1,09,0.90,40.9,M,-33.8,M,,*6F
13:36:29.357 -> $GPRMC,183629.000,A,3940.8954,N,07545.1453,W,0.01,149.90,171121,,,A*74
13:36:29.778 -> 
13:36:29.778 -> Time: 18:36:29.000
13:36:29.778 -> Date: 17/11/2021
13:36:29.778 -> Fix: 1 quality: 1
13:36:29.778 -> Location: 39.68159103, -75.75242615
13:36:29.778 -> Speed (knots): 0.01
13:36:29.778 -> Angle: 149.90
13:36:29.778 -> Altitude: 40.90
13:36:29.778 -> Satellites: 9
13:36:30.213 -> $PGTOP,11,2*6E
13:36:30.307 -> $GPGGA,183630.000,3940.8954,N,07545.1453,W,1,09,0.87,40.9,M,-33.8,M,,*61
13:36:30.355 -> $GPRMC,183630.000,A,3940.8954,N,07545.1453,W,0.02,41.72,171121,,,A*4A
13:36:31.227 -> $PGTOP,11,2*6E
13:36:31.312 -> $GPGGA,183631.000,3940.8954,N,07545.1453,W,1,09,0.87,40.9,M,-33.8,M,,*60
13:36:31.398 -> $GPRMC,183631.000,A,3940.8954,N,07545.1453,W,0.01,225.69,171121,,,A*72
13:36:31.783 -> 
13:36:31.783 -> Time: 18:36:31.000
13:36:31.783 -> Date: 17/11/2021
13:36:31.783 -> Fix: 1 quality: 1
13:36:31.783 -> Location: 39.68159103, -75.75242615
13:36:31.783 -> Speed (knots): 0.01
13:36:31.783 -> Angle: 225.69
13:36:31.783 -> Altitude: 40.90
13:36:31.783 -> Satellites: 9
13:36:32.234 -> $PGTOP,11,2*6E
13:36:32.324 -> $GPGGA,183632.000,3940.8954,N,07545.1453,W,1,09,0.90,40.9,M,-33.8,M,,*65
13:36:32.402 -> $GPRMC,183632.000,A,3940.8954,N,07545.1453,W,0.01,134.46,171121,,,A*7F
13:36:33.212 -> $PGTOP,11,2*6E
13:36:33.298 -> $GPGGA,183633.000,3940.8954,N,07545.1453,W,1,09,0.90,40.9,M,-33.8,M,,*64
13:36:33.390 -> $GPRMC,183633.000,A,3940.8954,N,07545.1453,W,0.01,312.92,171121,,,A*71
13:36:33.800 -> 
13:36:33.800 -> Time: 18:36:33.000
13:36:33.800 -> Date: 17/11/2021
13:36:33.800 -> Fix: 1 quality: 1
13:36:33.800 -> Location: 39.68159103, -75.75242615
13:36:33.800 -> Speed (knots): 0.01
13:36:33.800 -> Angle: 312.92
13:36:33.800 -> Altitude: 40.90
13:36:33.800 -> Satellites: 9
13:36:34.238 -> $PGTOP,11,2*6E
13:36:34.282 -> $GPGGA,183634.000,3940.8954,N,07545.1453,W,1,09,0.90,40.9,M,-33.8,M,,*63
13:36:34.364 -> $GPRMC,183634.000,A,3940.8954,N,07545.1453,W,0.00,0.00,171121,,,A*7C
13:36:35.210 -> $PGTOP,11,2*6E
13:36:35.288 -> $GPGGA,183635.000,3940.8954,N,07545.1453,W,1,09,0.90,40.9,M,-33.8,M,,*62
13:36:35.379 -> $GPRMC,183635.000,A,3940.8954,N,07545.1453,W,0.01,205.56,171121,,,A*78
13:36:35.780 -> 
13:36:35.780 -> Time: 18:36:35.000
13:36:35.780 -> Date: 17/11/2021
13:36:35.780 -> Fix: 1 quality: 1
13:36:35.780 -> Location: 39.68159103, -75.75242615
13:36:35.780 -> Speed (knots): 0.01
13:36:35.780 -> Angle: 205.56
13:36:35.780 -> Altitude: 40.90
13:36:35.780 -> Satellites: 9
13:36:36.226 -> $PGTOP,11,2*6E
13:36:36.323 -> $GPGGA,183636.000,3940.8954,N,07545.1453,W,1,09,0.90,40.9,M,-33.8,M,,*61
13:36:36.364 -> $GPRMC,183636.000,A,3940.8954,N,07545.1453,W,0.02,47.39,171121,,,A*45
13:36:37.237 -> $PGTOP,11,2*6E
13:36:37.330 -> $GPGGA,183637.000,3940.8954,N,07545.1453,W,1,09,0.90,40.9,M,-33.8,M,,*60
13:36:37.419 -> $GPRMC,183637.000,A,3940.8954,N,07545.1453,W,0.01,66.87,171121,,,A*41
13:36:37.771 -> 
13:36:37.771 -> Time: 18:36:37.000
13:36:37.771 -> Date: 17/11/2021
13:36:37.771 -> Fix: 1 quality: 1
13:36:37.771 -> Location: 39.68159103, -75.75242615
13:36:37.808 -> Speed (knots): 0.01
13:36:37.808 -> Angle: 66.87
13:36:37.808 -> Altitude: 40.90
13:36:37.808 -> Satellites: 9
13:36:38.233 -> $PGTOP,11,2*6E
13:36:38.310 -> $GPGGA,183638.000,3940.8954,N,07545.1453,W,1,09,0.90,40.9,M,-33.8,M,,*6F
13:36:38.354 -> $GPRMC,183638.000,A,3940.8954,N,07545.1453,W,0.01,41.70,171121,,,A*43
13:36:39.245 -> $PGTOP,11,2*6E
13:36:39.291 -> $GPGGA,183639.000,3940.8954,N,07545.1453,W,1,09,0.90,40.9,M,-33.8,M,,*6E
13:36:39.380 -> $GPRMC,183639.000,A,3940.8954,N,07545.1453,W,0.00,99.31,171121,,,A*43
13:36:39.792 -> 
13:36:39.792 -> Time: 18:36:39.000
13:36:39.792 -> Date: 17/11/2021
13:36:39.792 -> Fix: 1 quality: 1
13:36:39.792 -> Location: 39.68159103, -75.75242615
13:36:39.792 -> Speed (knots): 0.00
13:36:39.792 -> Angle: 99.31
13:36:39.792 -> Altitude: 40.90
13:36:39.792 -> Satellites: 9
13:36:40.211 -> $PGTOP,11,2*6E
13:36:40.286 -> $GPGGA,183640.000,3940.8954,N,07545.1453,W,1,09,0.90,40.9,M,-33.8,M,,*60
13:36:40.363 -> $GPRMC,183640.000,A,3940.8954,N,07545.1453,W,0.00,213.68,171121,,,A*71
13:36:41.223 -> $PGTOP,11,2*6E
13:36:41.308 -> $GPGGA,183641.000,3940.8954,N,07545.1453,W,1,09,0.90,40.9,M,-33.8,M,,*61
13:36:41.394 -> $GPRMC,183641.000,A,3940.8954,N,07545.1453,W,0.00,347.56,171121,,,A*7D
13:36:41.789 -> 
13:36:41.789 -> Time: 18:36:41.000
13:36:41.789 -> Date: 17/11/2021
13:36:41.789 -> Fix: 1 quality: 1
13:36:41.789 -> Location: 39.68159103, -75.75242615
13:36:41.789 -> Speed (knots): 0.00
13:36:41.789 -> Angle: 347.56
13:36:41.789 -> Altitude: 40.90
13:36:41.789 -> Satellites: 9
13:36:42.233 -> $PGTOP,11,2*6E
13:36:42.324 -> $GPGGA,183642.000,3940.8954,N,07545.1453,W,1,09,0.90,40.9,M,-33.8,M,,*62
13:36:42.369 -> $GPRMC,183642.000,A,3940.8954,N,07545.1453,W,0.01,77.06,171121,,,A*4A
13:36:43.234 -> $PGTOP,11,2*6E
13:36:43.307 -> $GPGGA,183643.000,3940.8954,N,07545.1453,W,1,09,0.90,40.9,M,-33.8,M,,*63
13:36:43.401 -> $GPRMC,183643.000,A,3940.8954,N,07545.1453,W,0.02,174.19,171121,,,A*74
13:36:43.801 -> 
13:36:43.801 -> Time: 18:36:43.000
13:36:43.801 -> Date: 17/11/2021
13:36:43.801 -> Fix: 1 quality: 1
13:36:43.801 -> Location: 39.68159103, -75.75242615
13:36:43.801 -> Speed (knots): 0.02
13:36:43.801 -> Angle: 174.19
13:36:43.801 -> Altitude: 40.90
13:36:43.801 -> Satellites: 9
13:36:44.231 -> $PGTOP,11,2*6E
13:36:44.312 -> $GPGGA,183644.000,3940.8954,N,07545.1453,W,1,09,0.90,40.9,M,-33.8,M,,*64
13:36:44.360 -> $GPRMC,183644.000,A,3940.8954,N,07545.1453,W,0.01,34.75,171121,,,A*4F
13:36:45.239 -> $PGTOP,11,2*6E
13:36:45.327 -> $GPGGA,183645.000,3940.8954,N,07545.1453,W,1,09,0.90,40.9,M,-33.8,M,,*65
13:36:45.370 -> $GPRMC,183645.000,A,3940.8954,N,07545.1453,W,0.01,297.57,171121,,,A*75
13:36:45.766 -> 
13:36:45.766 -> Time: 18:36:45.000
13:36:45.766 -> Date: 17/11/2021
13:36:45.812 -> Fix: 1 quality: 1
13:36:45.812 -> Location: 39.68159103, -75.75242615
13:36:45.812 -> Speed (knots): 0.01
13:36:45.812 -> Angle: 297.57
13:36:45.812 -> Altitude: 40.90
13:36:45.812 -> Satellites: 9
13:36:46.235 -> $PGTOP,11,2*6E
13:36:46.280 -> $GPGGA,183646.000,3940.8954,N,07545.1453,W,1,09,0.90,40.9,M,-33.8,M,,*66
13:36:46.372 -> $GPRMC,183646.000,A,3940.8954,N,07545.1453,W,0.03,110.04,171121,,,A*7E
13:36:47.228 -> $PGTOP,11,2*6E
13:36:47.318 -> $GPGGA,183647.000,3940.8954,N,07545.1453,W,1,09,0.90,40.9,M,-33.8,M,,*67
13:36:47.394 -> $GPRMC,183647.000,A,3940.8954,N,07545.1453,W,0.16,358.29,171121,,,A*7A
13:36:47.775 -> 
13:36:47.775 -> Time: 18:36:47.000
13:36:47.775 -> Date: 17/11/2021
13:36:47.775 -> Fix: 1 quality: 1
13:36:47.775 -> Location: 39.68159103, -75.75242615
13:36:47.775 -> Speed (knots): 0.16
13:36:47.775 -> Angle: 358.29
13:36:47.775 -> Altitude: 40.90
13:36:47.775 -> Satellites: 9
13:36:48.215 -> $PGTOP,11,2*6E
13:36:48.334 -> $GPGGA,183648.000,3940.8955,N,07545.1453,W,1,09,0.90,40.9,M,-33.8,M,,*69
13:36:48.379 -> $GPRMC,183648.000,A,3940.8955,N,07545.1453,W,0.04,9.70,171121,,,A*7C
13:36:49.244 -> $PGTOP,11,2*6E
13:36:49.332 -> $GPGGA,183649.000,3940.8955,N,07545.1453,W,1,09,0.90,40.9,M,-33.8,M,,*68
13:36:49.418 -> $GPRMC,183649.000,A,3940.8955,N,07545.1453,W,0.01,323.42,171121,,,A*72
13:36:49.768 -> 
13:36:49.768 -> Time: 18:36:49.000
13:36:49.768 -> Date: 17/11/2021
13:36:49.768 -> Fix: 1 quality: 1
13:36:49.768 -> Location: 39.68159103, -75.75242615
13:36:49.814 -> Speed (knots): 0.01
13:36:49.814 -> Angle: 323.42
13:36:49.814 -> Altitude: 40.90
13:36:49.814 -> Satellites: 9
13:36:50.226 -> $PGTOP,11,2*6E
13:36:50.310 -> $GPGGA,183650.000,3940.8955,N,07545.1453,W,1,09,0.90,40.9,M,-33.8,M,,*60
13:36:50.388 -> $GPRMC,183650.000,A,3940.8955,N,07545.1453,W,0.01,245.03,171121,,,A*7E
13:36:51.227 -> $PGTOP,11,2*6E
13:36:51.319 -> $GPGGA,183651.000,3940.8955,N,07545.1453,W,1,09,0.90,40.9,M,-33.8,M,,*61
13:36:51.415 -> $GPRMC,183651.000,A,3940.8955,N,07545.1453,W,0.09,260.81,171121,,,A*7A
13:36:51.772 -> 
13:36:51.772 -> Time: 18:36:51.000
13:36:51.772 -> Date: 17/11/2021
13:36:51.772 -> Fix: 1 quality: 1
13:36:51.772 -> Location: 39.68159103, -75.75242615
13:36:51.772 -> Speed (knots): 0.09
13:36:51.811 -> Angle: 260.81
13:36:51.811 -> Altitude: 40.90
13:36:51.811 -> Satellites: 9
13:36:52.257 -> $PGTOP,11,2*6E
13:36:52.301 -> $GPGGA,183652.000,3940.8955,N,07545.1454,W,1,08,1.08,40.9,M,-33.8,M,,*64
13:36:52.394 -> $GPRMC,183652.000,A,3940.8955,N,07545.1454,W,0.51,273.13,171121,,,A*7A
13:36:53.263 -> $PGTOP,11,2*6E
13:36:53.305 -> $GPGGA,183653.000,3940.8955,N,07545.1455,W,1,09,0.87,40.9,M,-33.8,M,,*63
13:36:53.395 -> $GPRMC,183653.000,A,3940.8955,N,07545.1455,W,1.55,301.24,171121,,,A*7F
13:36:53.778 -> 
13:36:53.778 -> Time: 18:36:53.000
13:36:53.778 -> Date: 17/11/2021
13:36:53.778 -> Fix: 1 quality: 1
13:36:53.778 -> Location: 39.68159103, -75.75242615
13:36:53.778 -> Speed (knots): 1.55
13:36:53.778 -> Angle: 301.24
13:36:53.778 -> Altitude: 40.90
13:36:53.778 -> Satellites: 9
13:36:54.240 -> $PGTOP,11,2*6E
13:36:54.329 -> $GPGGA,183654.000,3940.8957,N,07545.1460,W,1,09,0.87,40.9,M,-33.8,M,,*60
13:36:54.420 -> $GPRMC,183654.000,A,3940.8957,N,07545.1460,W,1.64,317.72,171121,,,A*7A
13:36:55.227 -> $PGTOP,11,2*6E
13:36:55.315 -> $GPGGA,183655.000,3940.8960,N,07545.1464,W,1,09,0.87,40.9,M,-33.8,M,,*61
13:36:55.360 -> $GPRMC,183655.000,A,3940.8960,N,07545.1464,W,1.92,320.13,171121,,,A*71
13:36:55.765 -> 
13:36:55.765 -> Time: 18:36:55.000
13:36:55.799 -> Date: 17/11/2021
13:36:55.799 -> Fix: 1 quality: 1
13:36:55.799 -> Location: 39.68159866, -75.75244141
13:36:55.799 -> Speed (knots): 1.92
13:36:55.799 -> Angle: 320.13
13:36:55.799 -> Altitude: 40.90
13:36:55.799 -> Satellites: 9
13:36:56.253 -> $PGTOP,11,2*6E
13:36:56.298 -> $GPGGA,183656.000,3940.8964,N,07545.1469,W,1,09,0.87,40.9,M,-33.8,M,,*6B
13:36:56.386 -> $GPRMC,183656.000,A,3940.8964,N,07545.1469,W,1.80,325.70,171121,,,A*78
13:36:57.227 -> $PGTOP,11,2*6E
13:36:57.319 -> $GPGGA,183657.000,3940.8969,N,07545.1472,W,1,08,1.08,40.9,M,-33.8,M,,*6A
13:36:57.364 -> $GPRMC,183657.000,A,3940.8969,N,07545.1472,W,1.92,317.64,171121,,,A*79
13:36:57.795 -> 
13:36:57.795 -> Time: 18:36:57.000
13:36:57.795 -> Date: 17/11/2021
13:36:57.795 -> Fix: 1 quality: 1
13:36:57.795 -> Location: 39.68161392, -75.75245667
13:36:57.795 -> Speed (knots): 1.92
13:36:57.795 -> Angle: 317.64
13:36:57.795 -> Altitude: 40.90
13:36:57.795 -> Satellites: 8
13:36:58.531 -> $PGTOP,11,2*6E
13:36:58.624 -> $GPGGA,183658.000,3940.8973,N,07545.1477,W,1,08,1.08,40.9,M,-33.8,M,,*6B
13:36:58.672 -> $GPRMC,183658.000,A,3940.8973,N,07545.1477,W,2.03,305.69,171121,,,A*7D
13:36:59.544 -> $PGTOP,11,2*6E
13:36:59.629 -> $GPGGA,183659.000,3940.8973,N,07545.1486,W,1,09,0.87,40.9,M,-33.8,M,,*63
13:36:59.673 -> $GPRMC,183659.000,A,3940.8973,N,07545.1486,W,2.19,283.19,171121,,,A*71
13:36:59.799 -> 
13:36:59.799 -> Time: 18:36:59.000
13:36:59.799 -> Date: 17/11/2021
13:36:59.799 -> Fix: 1 quality: 1
13:36:59.799 -> Location: 39.68161774, -75.75247955
13:36:59.799 -> Speed (knots): 2.19
13:36:59.799 -> Angle: 283.19
13:36:59.799 -> Altitude: 40.90
13:36:59.799 -> Satellites: 9
13:37:00.529 -> $PGTOP,11,2*6E
13:37:00.617 -> $GPGGA,183700.000,3940.8974,N,07545.1495,W,1,09,0.87,40.9,M,-33.8,M,,*6B
13:37:00.665 -> $GPRMC,183700.000,A,3940.8974,N,07545.1495,W,2.38,249.20,171121,,,A*76
13:37:01.591 -> $PGTOP,11,2*6E
13:37:01.680 -> $GPGGA,183701.000,3940.8971,N,07545.1502,W,1,09,0.87,40.9,M,-33.8,M,,*60
13:37:01.768 -> $GPRMC,183701.000,A,3940.8971,N,07545.1502,W,2.47,229.58,171121,,,A*7C
13:37:01.768 -> 
13:37:01.768 -> Time: 18:37:01.000
13:37:01.768 -> Date: 17/11/2021
13:37:01.768 -> Fix: 1 quality: 1
13:37:01.768 -> Location: 39.68161774, -75.75250244
13:37:01.817 -> Speed (knots): 2.47
13:37:01.817 -> Angle: 229.58
13:37:01.817 -> Altitude: 40.90
13:37:01.817 -> Satellites: 9
13:37:02.521 -> $PGTOP,11,2*6E
13:37:02.569 -> $GPGGA,183702.000,3940.8967,N,07545.1509,W,1,09,0.87,40.8,M,-33.8,M,,*6E
13:37:02.661 -> $GPRMC,183702.000,A,3940.8967,N,07545.1509,W,2.65,221.47,171121,,,A*75
13:37:03.539 -> $PGTOP,11,2*6E
13:37:03.635 -> $GPGGA,183703.000,3940.8963,N,07545.1516,W,1,09,0.87,40.8,M,-33.8,M,,*65
13:37:03.683 -> $GPRMC,183703.000,A,3940.8963,N,07545.1516,W,2.58,223.12,171121,,,A*72
13:37:03.776 -> 
13:37:03.776 -> Time: 18:37:03.000
13:37:03.776 -> Date: 17/11/2021
13:37:03.776 -> Fix: 1 quality: 1
13:37:03.776 -> Location: 39.68160248, -75.75253296
13:37:03.776 -> Speed (knots): 2.58
13:37:03.776 -> Angle: 223.12
13:37:03.776 -> Altitude: 40.80
13:37:03.776 -> Satellites: 9
13:37:04.522 -> $PGTOP,11,2*6E
13:37:04.568 -> $GPGGA,183704.000,3940.8958,N,07545.1523,W,1,09,0.87,40.7,M,-33.8,M,,*63
13:37:04.658 -> $GPRMC,183704.000,A,3940.8958,N,07545.1523,W,2.84,223.11,171121,,,A*79
13:37:05.545 -> $PGTOP,11,2*6E
13:37:05.629 -> $GPGGA,183705.000,3940.8953,N,07545.1529,W,1,09,0.87,40.7,M,-33.8,M,,*63
13:37:05.670 -> $GPRMC,183705.000,A,3940.8953,N,07545.1529,W,2.66,222.76,171121,,,A*75
13:37:05.804 -> 
13:37:05.804 -> Time: 18:37:05.000
13:37:05.804 -> Date: 17/11/2021
13:37:05.804 -> Fix: 1 quality: 1
13:37:05.804 -> Location: 39.68158722, -75.75254822
13:37:05.804 -> Speed (knots): 2.66
13:37:05.804 -> Angle: 222.76
13:37:05.804 -> Altitude: 40.70
13:37:05.804 -> Satellites: 9
13:37:06.577 -> $PGTOP,11,2*6E
13:37:06.667 -> $GPGGA,183706.000,3940.8949,N,07545.1536,W,1,09,0.87,40.7,M,-33.8,M,,*65
13:37:06.712 -> $GPRMC,183706.000,A,3940.8949,N,07545.1536,W,2.92,226.41,171121,,,A*78
13:37:07.511 -> $PGTOP,11,2*6E
13:37:07.597 -> $GPGGA,183707.000,3940.8944,N,07545.1543,W,1,09,0.87,40.7,M,-33.8,M,,*6B
13:37:07.686 -> $GPRMC,183707.000,A,3940.8944,N,07545.1543,W,2.71,220.09,171121,,,A*71
13:37:07.777 -> 
13:37:07.777 -> Time: 18:37:07.000
13:37:07.777 -> Date: 17/11/2021
13:37:07.777 -> Fix: 1 quality: 1
13:37:07.777 -> Location: 39.68157196, -75.75257874
13:37:07.777 -> Speed (knots): 2.71
13:37:07.777 -> Angle: 220.09
13:37:07.777 -> Altitude: 40.70
13:37:07.777 -> Satellites: 9
13:37:08.606 -> $PGTOP,11,2*6E
13:37:08.680 -> $GPGGA,183708.000,3940.8938,N,07545.1548,W,1,09,0.87,40.6,M,-33.8,M,,*65
13:37:08.726 -> $GPRMC,183708.000,A,3940.8938,N,07545.1548,W,3.01,210.97,171121,,,A*7C
13:37:09.514 -> $PGTOP,11,2*6E
13:37:09.602 -> $GPGGA,183709.000,3940.8932,N,07545.1554,W,1,09,0.87,40.7,M,-33.8,M,,*62
13:37:09.650 -> $GPRMC,183709.000,A,3940.8932,N,07545.1554,W,2.99,220.49,171121,,,A*7A
13:37:09.788 -> 
13:37:09.788 -> Time: 18:37:09.000
13:37:09.788 -> Date: 17/11/2021
13:37:09.788 -> Fix: 1 quality: 1
13:37:09.788 -> Location: 39.68155289, -75.75259399
13:37:09.788 -> Speed (knots): 2.99
13:37:09.788 -> Angle: 220.49
13:37:09.788 -> Altitude: 40.70
13:37:09.788 -> Satellites: 9
13:37:10.564 -> $PGTOP,11,2*6E
13:37:10.642 -> $GPGGA,183710.000,3940.8927,N,07545.1561,W,1,09,0.87,40.7,M,-33.8,M,,*68
13:37:10.722 -> $GPRMC,183710.000,A,3940.8927,N,07545.1561,W,2.63,212.47,171121,,,A*7A
13:37:11.484 -> $PGTOP,11,2*6E
13:37:11.564 -> $GPGGA,183711.000,3940.8922,N,07545.1566,W,1,09,0.87,40.7,M,-33.8,M,,*6B
13:37:11.646 -> $GPRMC,183711.000,A,3940.8922,N,07545.1566,W,2.50,215.92,171121,,,A*76
13:37:11.783 -> 
13:37:11.783 -> Time: 18:37:11.000
13:37:11.783 -> Date: 17/11/2021
13:37:11.783 -> Fix: 1 quality: 1
13:37:11.783 -> Location: 39.68153763, -75.75261688
13:37:11.783 -> Speed (knots): 2.50
13:37:11.783 -> Angle: 215.92
13:37:11.783 -> Altitude: 40.70
13:37:11.783 -> Satellites: 9
13:37:12.519 -> $PGTOP,11,2*6E
13:37:12.600 -> $GPGGA,183712.000,3940.8917,N,07545.1571,W,1,09,0.87,40.7,M,-33.8,M,,*68
13:37:12.683 -> $GPRMC,183712.000,A,3940.8917,N,07545.1571,W,2.41,210.59,171121,,,A*77
13:37:13.516 -> $PGTOP,11,2*6E
13:37:13.602 -> $GPGGA,183713.000,3940.8912,N,07545.1576,W,1,09,0.87,40.7,M,-33.8,M,,*6B
13:37:13.690 -> $GPRMC,183713.000,A,3940.8912,N,07545.1576,W,1.92,216.01,171121,,,A*72
13:37:13.779 -> 
13:37:13.779 -> Time: 18:37:13.000
13:37:13.779 -> Date: 17/11/2021
13:37:13.779 -> Fix: 1 quality: 1
13:37:13.779 -> Location: 39.68151855, -75.75262451
13:37:13.779 -> Speed (knots): 1.92
13:37:13.779 -> Angle: 216.01
13:37:13.779 -> Altitude: 40.70
13:37:13.779 -> Satellites: 9
13:37:14.605 -> $PGTOP,11,2*6E
13:37:14.685 -> $GPGGA,183714.000,3940.8907,N,07545.1579,W,1,09,0.87,40.6,M,-33.8,M,,*66
13:37:14.728 -> $GPRMC,183714.000,A,3940.8907,N,07545.1579,W,2.66,200.71,171121,,,A*76
13:37:15.533 -> $PGTOP,11,2*6E
13:37:15.620 -> $GPGGA,183715.000,3940.8901,N,07545.1583,W,1,09,0.87,40.6,M,-33.8,M,,*64
13:37:15.709 -> $GPRMC,183715.000,A,3940.8901,N,07545.1583,W,2.71,212.28,171121,,,A*7D
13:37:15.803 -> 
13:37:15.803 -> Time: 18:37:15.000
13:37:15.803 -> Date: 17/11/2021
13:37:15.803 -> Fix: 1 quality: 1
13:37:15.803 -> Location: 39.68149948, -75.75263977
13:37:15.803 -> Speed (knots): 2.71
13:37:15.803 -> Angle: 212.28
13:37:15.803 -> Altitude: 40.60
13:37:15.803 -> Satellites: 9
13:37:16.537 -> $PGTOP,11,2*6E
13:37:16.623 -> $GPGGA,183716.000,3940.8895,N,07545.1588,W,1,09,0.87,40.6,M,-33.8,M,,*60
13:37:16.719 -> $GPRMC,183716.000,A,3940.8895,N,07545.1588,W,2.79,211.38,171121,,,A*73
13:37:17.535 -> $PGTOP,11,2*6E
13:37:17.632 -> $GPGGA,183717.000,3940.8889,N,07545.1593,W,1,09,0.87,40.6,M,-33.8,M,,*66
13:37:17.719 -> $GPRMC,183717.000,A,3940.8889,N,07545.1593,W,2.67,213.81,171121,,,A*7A
13:37:17.811 -> 
13:37:17.811 -> Time: 18:37:17.000
13:37:17.811 -> Date: 17/11/2021
13:37:17.811 -> Fix: 1 quality: 1
13:37:17.811 -> Location: 39.68148041, -75.75266266
13:37:17.811 -> Speed (knots): 2.67
13:37:17.811 -> Angle: 213.81
13:37:17.811 -> Altitude: 40.60
13:37:17.811 -> Satellites: 9
13:37:18.534 -> $PGTOP,11,2*6E
13:37:18.621 -> $GPGGA,183718.000,3940.8882,N,07545.1597,W,1,09,0.87,40.6,M,-33.8,M,,*66
13:37:18.704 -> $GPRMC,183718.000,A,3940.8882,N,07545.1597,W,2.94,195.88,171121,,,A*72
13:37:19.505 -> $PGTOP,11,2*6E
13:37:19.600 -> $GPGGA,183719.000,3940.8875,N,07545.1601,W,1,08,1.08,40.7,M,-33.8,M,,*65
13:37:19.689 -> $GPRMC,183719.000,A,3940.8875,N,07545.1601,W,3.04,202.30,171121,,,A*71
13:37:19.776 -> 
13:37:19.776 -> Time: 18:37:19.000
13:37:19.776 -> Date: 17/11/2021
13:37:19.776 -> Fix: 1 quality: 1
13:37:19.776 -> Location: 39.68145752, -75.75267029
13:37:19.776 -> Speed (knots): 3.04
13:37:19.776 -> Angle: 202.30
13:37:19.776 -> Altitude: 40.70
13:37:19.776 -> Satellites: 8
13:37:20.518 -> $PGTOP,11,2*6E
13:37:20.615 -> $GPGGA,183720.000,3940.8868,N,07545.1604,W,1,08,1.08,40.8,M,-33.8,M,,*69
13:37:20.659 -> $GPRMC,183720.000,A,3940.8868,N,07545.1604,W,2.70,199.22,171121,,,A*72
13:37:21.527 -> $PGTOP,11,2*6E
13:37:21.613 -> $GPGGA,183721.000,3940.8860,N,07545.1606,W,1,08,1.08,40.9,M,-33.8,M,,*63
13:37:21.660 -> $GPRMC,183721.000,A,3940.8860,N,07545.1606,W,3.10,185.31,171121,,,A*71
13:37:21.797 -> 
13:37:21.797 -> Time: 18:37:21.000
13:37:21.797 -> Date: 17/11/2021
13:37:21.797 -> Fix: 1 quality: 1
13:37:21.797 -> Location: 39.68143463, -75.75267792
13:37:21.797 -> Speed (knots): 3.10
13:37:21.797 -> Angle: 185.31
13:37:21.797 -> Altitude: 40.90
13:37:21.797 -> Satellites: 8
13:37:22.583 -> $PGTOP,11,2*6E
13:37:22.629 -> $GPGGA,183722.000,3940.8851,N,07545.1607,W,1,08,1.08,40.9,M,-33.8,M,,*63
13:37:22.717 -> $GPRMC,183722.000,A,3940.8851,N,07545.1607,W,3.07,180.94,171121,,,A*7D
13:37:23.500 -> $PGTOP,11,2*6E
13:37:23.594 -> $GPGGA,183723.000,3940.8843,N,07545.1607,W,1,08,1.08,40.9,M,-33.8,M,,*61
13:37:23.639 -> $GPRMC,183723.000,A,3940.8843,N,07545.1607,W,3.14,180.31,171121,,,A*72
13:37:23.767 -> 
13:37:23.767 -> Time: 18:37:23.000
13:37:23.767 -> Date: 17/11/2021
13:37:23.767 -> Fix: 1 quality: 1
13:37:23.767 -> Location: 39.68140411, -75.75267792
13:37:23.812 -> Speed (knots): 3.14
13:37:23.812 -> Angle: 180.31
13:37:23.812 -> Altitude: 40.90
13:37:23.812 -> Satellites: 8
13:37:24.478 -> $PGTOP,11,2*6E
13:37:24.571 -> $GPGGA,183724.000,3940.8835,N,07545.1607,W,1,08,1.08,40.9,M,-33.8,M,,*67
13:37:24.663 -> $GPRMC,183724.000,A,3940.8835,N,07545.1607,W,3.01,172.03,171121,,,A*7C
13:37:25.534 -> $PGTOP,11,2*6E
13:37:25.580 -> $GPGGA,183725.000,3940.8827,N,07545.1606,W,1,08,1.08,41.0,M,-33.8,M,,*6C
13:37:25.670 -> $GPRMC,183725.000,A,3940.8827,N,07545.1606,W,2.88,177.18,171121,,,A*70
13:37:25.784 -> 
13:37:25.784 -> Time: 18:37:25.000
13:37:25.784 -> Date: 17/11/2021
13:37:25.784 -> Fix: 1 quality: 1
13:37:25.784 -> Location: 39.68137741, -75.75267792
13:37:25.784 -> Speed (knots): 2.88
13:37:25.784 -> Angle: 177.18
13:37:25.784 -> Altitude: 41.00
13:37:25.784 -> Satellites: 8
13:37:26.464 -> $PGTOP,11,2*6E
13:37:26.555 -> $GPGGA,183726.000,3940.8818,N,07545.1606,W,1,08,1.08,40.9,M,-33.8,M,,*6B
13:37:26.632 -> $GPRMC,183726.000,A,3940.8818,N,07545.1606,W,3.14,180.17,171121,,,A*7C
13:37:27.529 -> $PGTOP,11,2*6E
13:37:27.615 -> $GPGGA,183727.000,3940.8809,N,07545.1606,W,1,08,1.08,40.9,M,-33.8,M,,*6A
13:37:27.707 -> $GPRMC,183727.000,A,3940.8809,N,07545.1606,W,3.37,176.34,171121,,,A*74
13:37:27.799 -> 
13:37:27.799 -> Time: 18:37:27.000
13:37:27.799 -> Date: 17/11/2021
13:37:27.799 -> Fix: 1 quality: 1
13:37:27.799 -> Location: 39.68134689, -75.75267792
13:37:27.799 -> Speed (knots): 3.37
13:37:27.799 -> Angle: 176.34
13:37:27.799 -> Altitude: 40.90
13:37:27.799 -> Satellites: 8
13:37:28.505 -> $PGTOP,11,2*6E
13:37:28.601 -> $GPGGA,183728.000,3940.8801,N,07545.1606,W,1,09,0.87,41.0,M,-33.8,M,,*62
13:37:28.650 -> $GPRMC,183728.000,A,3940.8801,N,07545.1606,W,2.71,174.41,171121,,,A*70
13:37:29.565 -> $PGTOP,11,2*6E
13:37:29.652 -> $GPGGA,183729.000,3940.8794,N,07545.1606,W,1,09,0.87,41.0,M,-33.8,M,,*60
13:37:29.744 -> $GPRMC,183729.000,A,3940.8794,N,07545.1606,W,2.84,173.53,171121,,,A*7C
13:37:29.789 -> 
13:37:29.789 -> Time: 18:37:29.000
13:37:29.789 -> Date: 17/11/2021
13:37:29.789 -> Fix: 1 quality: 1
13:37:29.789 -> Location: 39.68132019, -75.75267792
13:37:29.789 -> Speed (knots): 2.84
13:37:29.789 -> Angle: 173.53
13:37:29.789 -> Altitude: 41.00
13:37:29.789 -> Satellites: 9
13:37:30.513 -> $PGTOP,11,2*6E
13:37:30.561 -> $GPGGA,183730.000,3940.8786,N,07545.1607,W,1,08,1.08,41.0,M,-33.8,M,,*6D
13:37:30.650 -> $GPRMC,183730.000,A,3940.8786,N,07545.1607,W,2.68,176.13,171121,,,A*75
13:37:31.555 -> $PGTOP,11,2*6E
13:37:31.634 -> $GPGGA,183731.000,3940.8778,N,07545.1606,W,1,07,1.12,40.9,M,-33.8,M,,*60
13:37:31.713 -> $GPRMC,183731.000,A,3940.8778,N,07545.1606,W,2.74,166.75,171121,,,A*78
13:37:31.800 -> 
13:37:31.800 -> Time: 18:37:31.000
13:37:31.800 -> Date: 17/11/2021
13:37:31.800 -> Fix: 1 quality: 1
13:37:31.800 -> Location: 39.68129730, -75.75267792
13:37:31.800 -> Speed (knots): 2.74
13:37:31.800 -> Angle: 166.75
13:37:31.800 -> Altitude: 40.90
13:37:31.800 -> Satellites: 7
13:37:32.502 -> $PGTOP,11,2*6E
13:37:32.583 -> $GPGGA,183732.000,3940.8771,N,07545.1607,W,1,08,0.92,40.9,M,-33.8,M,,*6D
13:37:32.668 -> $GPRMC,183732.000,A,3940.8771,N,07545.1607,W,2.67,178.20,171121,,,A*7E
13:37:33.507 -> $PGTOP,11,2*6E
13:37:33.590 -> $GPGGA,183733.000,3940.8764,N,07545.1608,W,1,08,0.92,40.8,M,-33.8,M,,*66
13:37:33.683 -> $GPRMC,183733.000,A,3940.8764,N,07545.1608,W,2.67,180.28,171121,,,A*7B
13:37:33.770 -> 
13:37:33.770 -> Time: 18:37:33.000
13:37:33.770 -> Date: 17/11/2021
13:37:33.770 -> Fix: 1 quality: 1
13:37:33.770 -> Location: 39.68127441, -75.75268555
13:37:33.816 -> Speed (knots): 2.67
13:37:33.816 -> Angle: 180.28
13:37:33.816 -> Altitude: 40.80
13:37:33.816 -> Satellites: 8
13:37:34.501 -> $PGTOP,11,2*6E
13:37:34.589 -> $GPGGA,183734.000,3940.8757,N,07545.1609,W,1,08,1.08,40.8,M,-33.8,M,,*62
13:37:34.677 -> $GPRMC,183734.000,A,3940.8757,N,07545.1609,W,2.74,173.88,171121,,,A*79
13:37:35.539 -> $PGTOP,11,2*6E
13:37:35.624 -> $GPGGA,183735.000,3940.8752,N,07545.1610,W,1,09,0.87,40.7,M,-33.8,M,,*66
13:37:35.696 -> $GPRMC,183735.000,A,3940.8752,N,07545.1610,W,1.88,187.34,171121,,,A*79
13:37:35.780 -> 
13:37:35.780 -> Time: 18:37:35.000
13:37:35.780 -> Date: 17/11/2021
13:37:35.780 -> Fix: 1 quality: 1
13:37:35.780 -> Location: 39.68125153, -75.75268555
13:37:35.780 -> Speed (knots): 1.88
13:37:35.780 -> Angle: 187.34
13:37:35.780 -> Altitude: 40.70
13:37:35.780 -> Satellites: 9
13:37:36.548 -> $PGTOP,11,2*6E
13:37:36.634 -> $GPGGA,183736.000,3940.8747,N,07545.1611,W,1,09,0.87,40.6,M,-33.8,M,,*61
13:37:36.706 -> $GPRMC,183736.000,A,3940.8747,N,07545.1611,W,2.07,180.35,171121,,,A*7D
13:37:37.579 -> $PGTOP,11,2*6E
13:37:37.669 -> $GPGGA,183737.000,3940.8741,N,07545.1610,W,1,08,0.92,40.4,M,-33.8,M,,*60
13:37:37.715 -> $GPRMC,183737.000,A,3940.8741,N,07545.1610,W,2.23,160.72,171121,,,A*70
13:37:37.808 -> 
13:37:37.808 -> Time: 18:37:37.000
13:37:37.808 -> Date: 17/11/2021
13:37:37.808 -> Fix: 1 quality: 1
13:37:37.808 -> Location: 39.68123627, -75.75268555
13:37:37.808 -> Speed (knots): 2.23
13:37:37.808 -> Angle: 160.72
13:37:37.808 -> Altitude: 40.40
13:37:37.808 -> Satellites: 8
13:37:38.545 -> $PGTOP,11,2*6E
13:37:38.632 -> $GPGGA,183738.000,3940.8735,N,07545.1611,W,1,08,0.92,40.1,M,-33.8,M,,*68
13:37:38.711 -> $GPRMC,183738.000,A,3940.8735,N,07545.1611,W,2.40,182.33,171121,,,A*71
13:37:39.558 -> $PGTOP,11,2*6E
13:37:39.640 -> $GPGGA,183739.000,3940.8729,N,07545.1613,W,1,09,0.87,40.0,M,-33.8,M,,*62
13:37:39.729 -> $GPRMC,183739.000,A,3940.8729,N,07545.1613,W,2.44,173.92,171121,,,A*7E
13:37:39.770 -> 
13:37:39.770 -> Time: 18:37:39.000
13:37:39.770 -> Date: 17/11/2021
13:37:39.770 -> Fix: 1 quality: 1
13:37:39.770 -> Location: 39.68121338, -75.75269318
13:37:39.806 -> Speed (knots): 2.44
13:37:39.806 -> Angle: 173.92
13:37:39.806 -> Altitude: 40.00
13:37:39.806 -> Satellites: 9
13:37:40.522 -> $PGTOP,11,2*6E
13:37:40.609 -> $GPGGA,183740.000,3940.8722,N,07545.1614,W,1,09,0.87,39.8,M,-33.8,M,,*66
13:37:40.653 -> $GPRMC,183740.000,A,3940.8722,N,07545.1614,W,2.46,172.61,171121,,,A*73
13:37:41.510 -> $PGTOP,11,2*6E
13:37:41.603 -> $GPGGA,183741.000,3940.8713,N,07545.1616,W,1,09,0.87,39.7,M,-33.8,M,,*68
13:37:41.684 -> $GPRMC,183741.000,A,3940.8713,N,07545.1616,W,3.31,183.50,171121,,,A*7F
13:37:41.769 -> 
13:37:41.769 -> Time: 18:37:41.000
13:37:41.769 -> Date: 17/11/2021
13:37:41.769 -> Fix: 1 quality: 1
13:37:41.769 -> Location: 39.68118668, -75.75270081
13:37:41.818 -> Speed (knots): 3.31
13:37:41.818 -> Angle: 183.50
13:37:41.818 -> Altitude: 39.70
13:37:41.818 -> Satellites: 9
13:37:42.502 -> $PGTOP,11,2*6E
13:37:42.582 -> $GPGGA,183742.000,3940.8706,N,07545.1618,W,1,09,0.87,39.6,M,-33.8,M,,*60
13:37:42.671 -> $GPRMC,183742.000,A,3940.8706,N,07545.1618,W,2.33,189.09,171121,,,A*73
13:37:43.533 -> $PGTOP,11,2*6E
13:37:43.609 -> $GPGGA,183743.000,3940.8700,N,07545.1621,W,1,09,0.87,39.5,M,-33.8,M,,*6E
13:37:43.699 -> $GPRMC,183743.000,A,3940.8700,N,07545.1621,W,1.95,188.83,171121,,,A*72
13:37:43.788 -> 
13:37:43.788 -> Time: 18:37:43.000
13:37:43.788 -> Date: 17/11/2021
13:37:43.788 -> Fix: 1 quality: 1
13:37:43.788 -> Location: 39.68116379, -75.75270081
13:37:43.788 -> Speed (knots): 1.95
13:37:43.788 -> Angle: 188.83
13:37:43.788 -> Altitude: 39.50
13:37:43.788 -> Satellites: 9
13:37:44.540 -> $PGTOP,11,2*6E
13:37:44.615 -> $GPGGA,183744.000,3940.8694,N,07545.1623,W,1,09,0.87,39.4,M,-33.8,M,,*66
13:37:44.663 -> $GPRMC,183744.000,A,3940.8694,N,07545.1623,W,2.10,183.62,171121,,,A*71
13:37:45.489 -> $PGTOP,11,2*6E
13:37:45.567 -> $GPGGA,183745.000,3940.8688,N,07545.1623,W,1,09,0.87,39.3,M,-33.8,M,,*6D
13:37:45.655 -> $GPRMC,183745.000,A,3940.8688,N,07545.1623,W,2.55,171.80,171121,,,A*7D
13:37:45.791 -> 
13:37:45.791 -> Time: 18:37:45.000
13:37:45.791 -> Date: 17/11/2021
13:37:45.791 -> Fix: 1 quality: 1
13:37:45.791 -> Location: 39.68114471, -75.75270844
13:37:45.791 -> Speed (knots): 2.55
13:37:45.791 -> Angle: 171.80
13:37:45.791 -> Altitude: 39.30
13:37:45.791 -> Satellites: 9
13:37:46.473 -> $PGTOP,11,2*6E
13:37:46.563 -> $GPGGA,183746.000,3940.8682,N,07545.1623,W,1,09,0.87,39.3,M,-33.8,M,,*64
13:37:46.642 -> $GPRMC,183746.000,A,3940.8682,N,07545.1623,W,2.15,175.73,171121,,,A*78
13:37:47.471 -> $PGTOP,11,2*6E
13:37:47.557 -> $GPGGA,183747.000,3940.8676,N,07545.1623,W,1,09,0.87,39.2,M,-33.8,M,,*6F
13:37:47.649 -> $GPRMC,183747.000,A,3940.8676,N,07545.1623,W,1.90,172.13,171121,,,A*7D
13:37:47.779 -> 
13:37:47.779 -> Time: 18:37:47.000
13:37:47.779 -> Date: 17/11/2021
13:37:47.779 -> Fix: 1 quality: 1
13:37:47.779 -> Location: 39.68112564, -75.75270844
13:37:47.779 -> Speed (knots): 1.90
13:37:47.779 -> Angle: 172.13
13:37:47.779 -> Altitude: 39.20
13:37:47.779 -> Satellites: 9
13:37:48.523 -> $PGTOP,11,2*6E
13:37:48.602 -> $GPGGA,183748.000,3940.8669,N,07545.1622,W,1,08,0.92,39.1,M,-33.8,M,,*69
13:37:48.693 -> $GPRMC,183748.000,A,3940.8669,N,07545.1622,W,2.73,175.03,171121,,,A*75
13:37:49.488 -> $PGTOP,11,2*6E
13:37:49.575 -> $GPGGA,183749.000,3940.8662,N,07545.1621,W,1,09,0.87,39.1,M,-33.8,M,,*65
13:37:49.668 -> $GPRMC,183749.000,A,3940.8662,N,07545.1621,W,2.15,176.11,171121,,,A*7C
13:37:49.803 -> 
13:37:49.803 -> Time: 18:37:49.000
13:37:49.803 -> Date: 17/11/2021
13:37:49.803 -> Fix: 1 quality: 1
13:37:49.803 -> Location: 39.68109894, -75.75270081
13:37:49.803 -> Speed (knots): 2.15
13:37:49.803 -> Angle: 176.11
13:37:49.803 -> Altitude: 39.10
13:37:49.803 -> Satellites: 9
13:37:50.582 -> $PGTOP,11,2*6E
13:37:50.661 -> $GPGGA,183750.000,3940.8653,N,07545.1621,W,1,09,0.87,38.9,M,-33.8,M,,*66
13:37:50.701 -> $GPRMC,183750.000,A,3940.8653,N,07545.1621,W,2.60,179.15,171121,,,A*7F
13:37:51.512 -> $PGTOP,11,2*6E
13:37:51.597 -> $GPGGA,183751.000,3940.8647,N,07545.1621,W,1,09,0.87,38.8,M,-33.8,M,,*63
13:37:51.646 -> $GPRMC,183751.000,A,3940.8647,N,07545.1621,W,2.06,185.33,171121,,,A*7C
13:37:51.774 -> 
13:37:51.774 -> Time: 18:37:51.000
13:37:51.774 -> Date: 17/11/2021
13:37:51.774 -> Fix: 1 quality: 1
13:37:51.774 -> Location: 39.68107986, -75.75270081
13:37:51.774 -> Speed (knots): 2.06
13:37:51.818 -> Angle: 185.33
13:37:51.818 -> Altitude: 38.80
13:37:51.818 -> Satellites: 9
13:37:52.543 -> $PGTOP,11,2*6E
13:37:52.628 -> $GPGGA,183752.000,3940.8641,N,07545.1622,W,1,09,0.87,38.7,M,-33.8,M,,*6A
13:37:52.721 -> $GPRMC,183752.000,A,3940.8641,N,07545.1622,W,1.83,189.40,171121,,,A*7C
13:37:53.487 -> $PGTOP,11,2*6E
13:37:53.580 -> $GPGGA,183753.000,3940.8630,N,07545.1621,W,1,09,0.87,38.4,M,-33.8,M,,*6D
13:37:53.670 -> $GPRMC,183753.000,A,3940.8630,N,07545.1621,W,3.53,170.64,171121,,,A*77
13:37:53.807 -> 
13:37:53.807 -> Time: 18:37:53.000
13:37:53.807 -> Date: 17/11/2021
13:37:53.807 -> Fix: 1 quality: 1
13:37:53.807 -> Location: 39.68104935, -75.75270081
13:37:53.807 -> Speed (knots): 3.53
13:37:53.807 -> Angle: 170.64
13:37:53.807 -> Altitude: 38.40
13:37:53.807 -> Satellites: 9
13:37:54.482 -> $PGTOP,11,2*6E
13:37:54.571 -> $GPGGA,183754.000,3940.8621,N,07545.1620,W,1,09,0.87,38.3,M,-33.8,M,,*6C
13:37:54.661 -> $GPRMC,183754.000,A,3940.8621,N,07545.1620,W,2.97,174.73,171121,,,A*7A
13:37:55.512 -> $PGTOP,11,2*6E
13:37:55.602 -> $GPGGA,183755.000,3940.8612,N,07545.1619,W,1,09,0.87,38.2,M,-33.8,M,,*66
13:37:55.691 -> $GPRMC,183755.000,A,3940.8612,N,07545.1619,W,2.90,179.31,171121,,,A*7D
13:37:55.785 -> 
13:37:55.785 -> Time: 18:37:55.000
13:37:55.785 -> Date: 17/11/2021
13:37:55.785 -> Fix: 1 quality: 1
13:37:55.785 -> Location: 39.68101883, -75.75270081
13:37:55.785 -> Speed (knots): 2.90
13:37:55.785 -> Angle: 179.31
13:37:55.785 -> Altitude: 38.20
13:37:55.785 -> Satellites: 9
13:37:56.532 -> $PGTOP,11,2*6E
13:37:56.613 -> $GPGGA,183756.000,3940.8603,N,07545.1618,W,1,08,0.92,38.0,M,-33.8,M,,*63
13:37:56.703 -> $GPRMC,183756.000,A,3940.8603,N,07545.1618,W,3.26,172.07,171121,,,A*7D
13:37:57.590 -> $PGTOP,11,2*6E
13:37:57.668 -> $GPGGA,183757.000,3940.8595,N,07545.1618,W,1,09,0.87,37.8,M,-33.8,M,,*6C
13:37:57.712 -> $GPRMC,183757.000,A,3940.8595,N,07545.1618,W,2.80,180.83,171121,,,A*7C
13:37:57.795 -> 
13:37:57.795 -> Time: 18:37:57.000
13:37:57.795 -> Date: 17/11/2021
13:37:57.795 -> Fix: 1 quality: 1
13:37:57.795 -> Location: 39.68099213, -75.75270081
13:37:57.795 -> Speed (knots): 2.80
13:37:57.795 -> Angle: 180.83
13:37:57.795 -> Altitude: 37.80
13:37:57.795 -> Satellites: 9
13:37:58.535 -> $PGTOP,11,2*6E
13:37:58.629 -> $GPGGA,183758.000,3940.8588,N,07545.1618,W,1,09,0.87,37.7,M,-33.8,M,,*60
13:37:58.718 -> $GPRMC,183758.000,A,3940.8588,N,07545.1618,W,2.36,177.68,171121,,,A*7F
13:37:59.539 -> $PGTOP,11,2*6E
13:37:59.628 -> $GPGGA,183759.000,3940.8581,N,07545.1618,W,1,08,0.92,37.7,M,-33.8,M,,*6D
13:37:59.670 -> $GPRMC,183759.000,A,3940.8581,N,07545.1618,W,2.90,176.28,171121,,,A*7E
13:37:59.807 -> 
13:37:59.807 -> Time: 18:37:59.000
13:37:59.807 -> Date: 17/11/2021
13:37:59.807 -> Fix: 1 quality: 1
13:37:59.807 -> Location: 39.68096542, -75.75270081
13:37:59.807 -> Speed (knots): 2.90
13:37:59.807 -> Angle: 176.28
13:37:59.807 -> Altitude: 37.70
13:37:59.807 -> Satellites: 8
13:38:00.575 -> $PGTOP,11,2*6E
13:38:00.623 -> $GPGGA,183800.000,3940.8573,N,07545.1618,W,1,08,0.92,37.5,M,-33.8,M,,*61
13:38:00.711 -> $GPRMC,183800.000,A,3940.8573,N,07545.1618,W,2.86,170.39,171121,,,A*71
13:38:01.522 -> $PGTOP,11,2*6E
13:38:01.613 -> $GPGGA,183801.000,3940.8566,N,07545.1619,W,1,08,0.92,37.5,M,-33.8,M,,*65
13:38:01.701 -> $GPRMC,183801.000,A,3940.8566,N,07545.1619,W,2.55,172.36,171121,,,A*76
13:38:01.789 -> 
13:38:01.789 -> Time: 18:38:01.000
13:38:01.789 -> Date: 17/11/2021
13:38:01.789 -> Fix: 1 quality: 1
13:38:01.789 -> Location: 39.68094254, -75.75270081
13:38:01.789 -> Speed (knots): 2.55
13:38:01.789 -> Angle: 172.36
13:38:01.789 -> Altitude: 37.50
13:38:01.789 -> Satellites: 8
13:38:02.516 -> $PGTOP,11,2*6E
13:38:02.603 -> $GPGGA,183802.000,3940.8558,N,07545.1617,W,1,08,0.92,37.4,M,-33.8,M,,*64
13:38:02.669 -> $GPRMC,183802.000,A,3940.8558,N,07545.1617,W,3.18,169.11,171121,,,A*71
13:38:03.528 -> $PGTOP,11,2*6E
13:38:03.616 -> $GPGGA,183803.000,3940.8549,N,07545.1615,W,1,09,0.87,37.2,M,-33.8,M,,*64
13:38:03.665 -> $GPRMC,183803.000,A,3940.8549,N,07545.1615,W,2.99,170.39,171121,,,A*78
13:38:03.794 -> 
13:38:03.794 -> Time: 18:38:03.000
13:38:03.794 -> Date: 17/11/2021
13:38:03.794 -> Fix: 1 quality: 1
13:38:03.794 -> Location: 39.68091583, -75.75270081
13:38:03.794 -> Speed (knots): 2.99
13:38:03.794 -> Angle: 170.39
13:38:03.794 -> Altitude: 37.20
13:38:03.794 -> Satellites: 9
13:38:04.552 -> $PGTOP,11,2*6E
13:38:04.644 -> $GPGGA,183804.000,3940.8542,N,07545.1613,W,1,09,0.87,37.1,M,-33.8,M,,*6D
13:38:04.690 -> $GPRMC,183804.000,A,3940.8542,N,07545.1613,W,2.68,163.84,171121,,,A*78
13:38:05.501 -> $PGTOP,11,2*6E
13:38:05.546 -> $GPGGA,183805.000,3940.8535,N,07545.1613,W,1,09,0.87,37.0,M,-33.8,M,,*6D
13:38:05.632 -> $GPRMC,183805.000,A,3940.8535,N,07545.1613,W,2.37,181.25,171121,,,A*74
13:38:05.792 -> 
13:38:05.792 -> Time: 18:38:05.000
13:38:05.792 -> Date: 17/11/2021
13:38:05.792 -> Fix: 1 quality: 1
